[
  { "nom": "Cholet", "population": 54074, "dept": "49", "zone": "Agglomération du Choletais", "lat": 47.06, "lon": -0.88 },
  { "nom": "Lys-Haut-Layon", "population": 8000, "dept": "49", "zone": "Agglomération du Choletais", "lat": 47.146, "lon": -0.535 },
  { "nom": "Le May-sur-Èvre", "population": 4600, "dept": "49", "zone": "Agglomération du Choletais", "lat": 47.115, "lon": -0.945 },
  { "nom": "Maulévrier", "population": 3200, "dept": "49", "zone": "Agglomération du Choletais", "lat": 47.005, "lon": -0.745 },
  { "nom": "La Séguinière", "population": 3100, "dept": "49", "zone": "Agglomération du Choletais", "lat": 47.075, "lon": -0.945 },
  { "nom": "Saint-Léger-sous-Cholet", "population": 3000, "dept": "49", "zone": "Agglomération du Choletais", "lat": 47.095, "lon": -0.905 },
  { "nom": "Trémentines", "population": 2900, "dept": "49", "zone": "Agglomération du Choletais", "lat": 47.115, "lon": -0.825 },
  { "nom": "La Tessoualle", "population": 2700, "dept": "49", "zone": "Agglomération du Choletais", "lat": 47.005, "lon": -0.835 },
  { "nom": "Yzernay", "population": 2400, "dept": "49", "zone": "Agglomération du Choletais", "lat": 47.000, "lon": -0.700 },
  { "nom": "Saint-Christophe-du-Bois", "population": 2300, "dept": "49", "zone": "Agglomération du Choletais", "lat": 47.040, "lon": -0.965 },
  { "nom": "Vezins", "population": 1700, "dept": "49", "zone": "Agglomération du Choletais", "lat": 47.085, "lon": -0.730 },
  { "nom": "Coron", "population": 1600, "dept": "49", "zone": "Agglomération du Choletais", "lat": 47.060, "lon": -0.715 },
  { "nom": "La Romagne", "population": 1500, "dept": "49", "zone": "Agglomération du Choletais", "lat": 47.045, "lon": -1.030 },
  { "nom": "Toutlemonde", "population": 1400, "dept": "49", "zone": "Agglomération du Choletais", "lat": 47.045, "lon": -0.745 },
  { "nom": "Somloire", "population": 1400, "dept": "49", "zone": "Agglomération du Choletais", "lat": 46.985, "lon": -0.660 },
  { "nom": "Montilliers", "population": 1300, "dept": "49", "zone": "Agglomération du Choletais", "lat": 47.155, "lon": -0.620 },
  { "nom": "Nuaillé", "population": 1300, "dept": "49", "zone": "Agglomération du Choletais", "lat": 47.085, "lon": -0.785 },
  { "nom": "Les Cerqueux", "population": 1100, "dept": "49", "zone": "Agglomération du Choletais", "lat": 46.985, "lon": -0.640 },
  { "nom": "Saint-Paul-du-Bois", "population": 1100, "dept": "49", "zone": "Agglomération du Choletais", "lat": 47.075, "lon": -0.600 },
  { "nom": "Bégrolles-en-Mauges", "population": 1100, "dept": "49", "zone": "Agglomération du Choletais", "lat": 47.115, "lon": -0.985 },
  { "nom": "Cléré-sur-Layon", "population": 900, "dept": "49", "zone": "Agglomération du Choletais", "lat": 47.135, "lon": -0.490 },
  { "nom": "Chanteloup-les-Bois", "population": 800, "dept": "49", "zone": "Agglomération du Choletais", "lat": 47.020, "lon": -0.660 },
  { "nom": "Passavant-sur-Layon", "population": 400, "dept": "49", "zone": "Agglomération du Choletais", "lat": 47.110, "lon": -0.450 },
  { "nom": "Cernusson", "population": 300, "dept": "49", "zone": "Agglomération du Choletais", "lat": 47.130, "lon": -0.560 },

  { "nom": "Nantes", "population": 325070, "dept": "44", "zone": "Loire-Atlantique", "lat": 47.218, "lon": -1.554 },
  { "nom": "Saint-Nazaire", "population": 73111, "dept": "44", "zone": "Loire-Atlantique", "lat": 47.273, "lon": -2.213 },
  { "nom": "Saint-Herblain", "population": 50561, "dept": "44", "zone": "Loire-Atlantique", "lat": 47.212, "lon": -1.648 },
  { "nom": "Rezé", "population": 43349, "dept": "44", "zone": "Loire-Atlantique", "lat": 47.193, "lon": -1.549 },
  { "nom": "Saint-Sébastien-sur-Loire", "population": 28373, "dept": "44", "zone": "Loire-Atlantique", "lat": 47.208, "lon": -1.502 },
  { "nom": "Orvault", "population": 28341, "dept": "44", "zone": "Loire-Atlantique", "lat": 47.272, "lon": -1.622 },
  { "nom": "Vertou", "population": 26048, "dept": "44", "zone": "Loire-Atlantique", "lat": 47.168, "lon": -1.470 },
  { "nom": "Couëron", "population": 23541, "dept": "44", "zone": "Loire-Atlantique", "lat": 47.215, "lon": -1.722 },
  { "nom": "Bouguenais", "population": 20590, "dept": "44", "zone": "Loire-Atlantique", "lat": 47.176, "lon": -1.621 },
  { "nom": "Carquefou", "population": 20535, "dept": "44", "zone": "Loire-Atlantique", "lat": 47.297, "lon": -1.491 },
  { "nom": "La Chapelle-sur-Erdre", "population": 20483, "dept": "44", "zone": "Loire-Atlantique", "lat": 47.297, "lon": -1.553 },
  { "nom": "Pornic", "population": 18382, "dept": "44", "zone": "Loire-Atlantique", "lat": 47.115, "lon": -2.103 },
  { "nom": "Guérande", "population": 16684, "dept": "44", "zone": "Loire-Atlantique", "lat": 47.328, "lon": -2.428 },
  { "nom": "La Baule-Escoublac", "population": 16613, "dept": "44", "zone": "Loire-Atlantique", "lat": 47.286, "lon": -2.391 },
  { "nom": "Sainte-Luce-sur-Loire", "population": 15000, "dept": "44", "zone": "Loire-Atlantique", "lat": 47.249, "lon": -1.487 },
  { "nom": "Ancenis-Saint-Géréon", "population": 11346, "dept": "44", "zone": "Loire-Atlantique", "lat": 47.366, "lon": -1.177 },
  { "nom": "Pontchâteau", "population": 11249, "dept": "44", "zone": "Loire-Atlantique", "lat": 47.437, "lon": -2.088 },
  { "nom": "Vallet", "population": 9524, "dept": "44", "zone": "Loire-Atlantique", "lat": 47.162, "lon": -1.266 },
  { "nom": "Savenay", "population": 9465, "dept": "44", "zone": "Loire-Atlantique", "lat": 47.360, "lon": -1.945 },
  { "nom": "Basse-Goulaine", "population": 9300, "dept": "44", "zone": "Loire-Atlantique", "lat": 47.207, "lon": -1.452 },
  { "nom": "Clisson", "population": 7459, "dept": "44", "zone": "Loire-Atlantique", "lat": 47.088, "lon": -1.283 },
  { "nom": "Haute-Goulaine", "population": 5992, "dept": "44", "zone": "Loire-Atlantique", "lat": 47.197, "lon": -1.404 },

  { "nom": "Angers", "population": 157555, "dept": "49", "zone": "Maine-et-Loire", "lat": 47.471, "lon": -0.554 },
  { "nom": "Saumur", "population": 26212, "dept": "49", "zone": "Maine-et-Loire", "lat": 47.260, "lon": -0.077 },
  { "nom": "Sèvremoine", "population": 25700, "dept": "49", "zone": "Maine-et-Loire", "lat": 47.110, "lon": -1.105 },
  { "nom": "Beaupréau-en-Mauges", "population": 23643, "dept": "49", "zone": "Maine-et-Loire", "lat": 47.207, "lon": -0.991 },
  { "nom": "Chemillé-en-Anjou", "population": 21391, "dept": "49", "zone": "Maine-et-Loire", "lat": 47.211, "lon": -0.726 },
  { "nom": "Mauges-sur-Loire", "population": 18300, "dept": "49", "zone": "Maine-et-Loire", "lat": 47.363, "lon": -0.998 },
  { "nom": "Segré-en-Anjou Bleu", "population": 17697, "dept": "49", "zone": "Maine-et-Loire", "lat": 47.687, "lon": -0.873 },
  { "nom": "Orée d'Anjou", "population": 16975, "dept": "49", "zone": "Maine-et-Loire", "lat": 47.333, "lon": -1.260 },
  { "nom": "Loire-Authion", "population": 16588, "dept": "49", "zone": "Maine-et-Loire", "lat": 47.452, "lon": -0.405 },
  { "nom": "Montrevault-sur-Èvre", "population": 15684, "dept": "49", "zone": "Maine-et-Loire", "lat": 47.230, "lon": -1.045 },
  { "nom": "Trélazé", "population": 15620, "dept": "49", "zone": "Maine-et-Loire", "lat": 47.445, "lon": -0.483 },
  { "nom": "Avrillé", "population": 15225, "dept": "49", "zone": "Maine-et-Loire", "lat": 47.508, "lon": -0.589 },
  { "nom": "Les Ponts-de-Cé", "population": 12863, "dept": "49", "zone": "Maine-et-Loire", "lat": 47.425, "lon": -0.519 },
  { "nom": "Baugé-en-Anjou", "population": 11747, "dept": "49", "zone": "Maine-et-Loire", "lat": 47.543, "lon": -0.107 },
  { "nom": "Doué-la-Fontaine", "population": 8023, "dept": "49", "zone": "Maine-et-Loire", "lat": 47.190, "lon": -0.275 },
  { "nom": "Longué-Jumelles", "population": 7000, "dept": "49", "zone": "Maine-et-Loire", "lat": 47.388, "lon": -0.114 },
  { "nom": "Chalonnes-sur-Loire", "population": 6800, "dept": "49", "zone": "Maine-et-Loire", "lat": 47.350, "lon": -0.764 },
  { "nom": "Ingrandes-Le Fresne sur Loire", "population": 6000, "dept": "49", "zone": "Maine-et-Loire", "lat": 47.405, "lon": -0.920 },
  { "nom": "Saint-Sylvain-d'Anjou", "population": 5360, "dept": "49", "zone": "Maine-et-Loire", "lat": 47.530, "lon": -0.470 },

  { "nom": "Lorient", "population": 58202, "dept": "56", "zone": "Morbihan", "lat": 47.748, "lon": -3.366 },
  { "nom": "Vannes", "population": 54955, "dept": "56", "zone": "Morbihan", "lat": 47.658, "lon": -2.760 },
  { "nom": "Lanester", "population": 23691, "dept": "56", "zone": "Morbihan", "lat": 47.762, "lon": -3.339 },
  { "nom": "Ploemeur", "population": 19499, "dept": "56", "zone": "Morbihan", "lat": 47.732, "lon": -3.430 },
  { "nom": "Hennebont", "population": 16275, "dept": "56", "zone": "Morbihan", "lat": 47.808, "lon": -3.275 },
  { "nom": "Auray", "population": 14000, "dept": "56", "zone": "Morbihan", "lat": 47.668, "lon": -2.982 },
  { "nom": "Guidel", "population": 12543, "dept": "56", "zone": "Morbihan", "lat": 47.789, "lon": -3.490 },
  { "nom": "Quéven", "population": 9152, "dept": "56", "zone": "Morbihan", "lat": 47.789, "lon": -3.417 },
  { "nom": "Séné", "population": 9000, "dept": "56", "zone": "Morbihan", "lat": 47.617, "lon": -2.755 },
  { "nom": "Theix-Noyalo", "population": 8000, "dept": "56", "zone": "Morbihan", "lat": 47.633, "lon": -2.652 },
  { "nom": "Caudan", "population": 7273, "dept": "56", "zone": "Morbihan", "lat": 47.808, "lon": -3.348 },
  { "nom": "Elven", "population": 6565, "dept": "56", "zone": "Morbihan", "lat": 47.733, "lon": -2.594 },
  { "nom": "Grand-Champ", "population": 5929, "dept": "56", "zone": "Morbihan", "lat": 47.752, "lon": -2.847 },
  { "nom": "Plouay", "population": 5911, "dept": "56", "zone": "Morbihan", "lat": 47.913, "lon": -3.337 },
  { "nom": "Arradon", "population": 5820, "dept": "56", "zone": "Morbihan", "lat": 47.633, "lon": -2.823 },
  { "nom": "Muzillac", "population": 5000, "dept": "56", "zone": "Morbihan", "lat": 47.555, "lon": -2.480 },
  { "nom": "Baden", "population": 4864, "dept": "56", "zone": "Morbihan", "lat": 47.617, "lon": -2.917 },
  { "nom": "Locmiquélic", "population": 4198, "dept": "56", "zone": "Morbihan", "lat": 47.717, "lon": -3.343 },
  { "nom": "Arzon", "population": 4000, "dept": "56", "zone": "Morbihan", "lat": 47.548, "lon": -2.890 },
  { "nom": "La Roche-Bernard", "population": 700, "dept": "56", "zone": "Morbihan", "lat": 47.519, "lon": -2.303 },

  { "nom": "Niort", "population": 60074, "dept": "79", "zone": "Deux-Sèvres", "lat": 46.323, "lon": -0.459 },
  { "nom": "Bressuire", "population": 19860, "dept": "79", "zone": "Deux-Sèvres", "lat": 46.840, "lon": -0.488 },
  { "nom": "Thouars", "population": 13949, "dept": "79", "zone": "Deux-Sèvres", "lat": 46.976, "lon": -0.215 },
  { "nom": "Parthenay", "population": 10121, "dept": "79", "zone": "Deux-Sèvres", "lat": 46.648, "lon": -0.246 },
  { "nom": "Mauléon", "population": 8585, "dept": "79", "zone": "Deux-Sèvres", "lat": 46.928, "lon": -0.751 },
  { "nom": "Nueil-les-Aubiers", "population": 5529, "dept": "79", "zone": "Deux-Sèvres", "lat": 46.934, "lon": -0.594 },
  { "nom": "Cerizay", "population": 4795, "dept": "79", "zone": "Deux-Sèvres", "lat": 46.819, "lon": -0.668 },
  { "nom": "Argentonnay", "population": 3229, "dept": "79", "zone": "Deux-Sèvres", "lat": 46.985, "lon": -0.448 },

  { "nom": "La Roche-sur-Yon", "population": 54699, "dept": "85", "zone": "Vendée", "lat": 46.670, "lon": -1.426 },
  { "nom": "Les Sables-d'Olonne", "population": 48740, "dept": "85", "zone": "Vendée", "lat": 46.497, "lon": -1.783 },
  { "nom": "Challans", "population": 22890, "dept": "85", "zone": "Vendée", "lat": 46.847, "lon": -1.875 },
  { "nom": "Montaigu-Vendée", "population": 20754, "dept": "85", "zone": "Vendée", "lat": 46.976, "lon": -1.311 },
  { "nom": "Les Herbiers", "population": 16589, "dept": "85", "zone": "Vendée", "lat": 46.872, "lon": -1.014 },
  { "nom": "Fontenay-le-Comte", "population": 13500, "dept": "85", "zone": "Vendée", "lat": 46.467, "lon": -0.805 },
  { "nom": "Saint-Hilaire-de-Riez", "population": 11000, "dept": "85", "zone": "Vendée", "lat": 46.718, "lon": -1.943 },
  { "nom": "Aizenay", "population": 9800, "dept": "85", "zone": "Vendée", "lat": 46.740, "lon": -1.609 },
  { "nom": "Luçon", "population": 9500, "dept": "85", "zone": "Vendée", "lat": 46.456, "lon": -1.165 },
  { "nom": "Saint-Jean-de-Monts", "population": 8500, "dept": "85", "zone": "Vendée", "lat": 46.791, "lon": -2.059 },
  { "nom": "Talmont-Saint-Hilaire", "population": 7500, "dept": "85", "zone": "Vendée", "lat": 46.467, "lon": -1.617 },
  { "nom": "Saint-Gilles-Croix-de-Vie", "population": 7500, "dept": "85", "zone": "Vendée", "lat": 46.697, "lon": -1.943 },
  { "nom": "Essarts-en-Bocage", "population": 6835, "dept": "85", "zone": "Vendée", "lat": 46.772, "lon": -1.231 },
  { "nom": "Noirmoutier-en-l'Île", "population": 4500, "dept": "85", "zone": "Vendée", "lat": 46.999, "lon": -2.247 },
  { "nom": "La Tranche-sur-Mer", "population": 4500, "dept": "85", "zone": "Vendée", "lat": 46.345, "lon": -1.434 },
  { "nom": "Mareuil-sur-Lay-Dissais", "population": 3800, "dept": "85", "zone": "Vendée", "lat": 46.532, "lon": -1.222 },
  { "nom": "Saint-Julien-des-Landes", "population": 3200, "dept": "85", "zone": "Vendée", "lat": 46.640, "lon": -1.717 },
  { "nom": "Jard-sur-Mer", "population": 3200, "dept": "85", "zone": "Vendée", "lat": 46.413, "lon": -1.580 },
  { "nom": "Sainte-Foy", "population": 2800, "dept": "85", "zone": "Vendée", "lat": 46.560, "lon": -1.660 },
  { "nom": "Longeville-sur-Mer", "population": 2500, "dept": "85", "zone": "Vendée", "lat": 46.420, "lon": -1.495 }
]
